{
"data": {
"list": [
{
"labelid": 1000,
"labelname": "全部",
"restlist": {
"list": [
{
"id": "10245",
"lng": "120.16345",
"lat": "30.252683",
"phone": "0571-87065871,0571-87010499",
"label": "",
"cover": "http://cdn.youyuwei.com/o_1a29mtjqthoanmv1kasvgevgb9.jpg?imageView2/1/w/640/h/290",
"name": "知味观(仁和路总店)",
"cost": "120",
"name_origin": "",
"address": "杭州市上城区仁和路83号(近东坡路)",
"address_origin": "",
"open_time": "",
"type": "小吃",
"summary": "闻香下马，知味停车",
"reason": "1913年便被创建的知味观，历史十分悠久。这里传统的小吃点心，倾倒无数中外食客。",
"desc": "“欲知我味，观料便知”八个大字，贴在门楣上，是何等霸气，孙翼斋先生早在1913年便创建了知味观。杭州美食餐厅知味斋中传统的名小吃、名点心争奇斗艳，倾倒无数中外食客。\n地处前含山水，后挹湖光，亭阁楼轩，六栋建筑如明珠般点缀于湖水林荫间，顾客至此，如入画中。\n历经百年的沧桑，风采依然，风味依旧，如此经典的杭州美食你舍得错过吗？\n"
},
{
"id": "10246",
"lng": "120.140745",
"lat": "30.250192",
"phone": "0571-87969682,0571-87969023",
"label": "",
"cover": "http://cdn.youyuwei.com/o_1a29n93i519mlk1l8lcvp1l489.jpg?imageView2/1/w/640/h/290",
"name": "楼外楼(孤山路店)",
"cost": "147",
"name_origin": "",
"address": "杭州市西湖区孤山路30(近平湖秋月) ",
"address_origin": "",
"open_time": "",
"type": "江浙菜",
"summary": "一楼风月当酣饮，十里湖山豁醉眸",
"reason": "楼外楼有着最得天独厚的位置优势，独立瘦西湖边，负山拥水，只有美食可堪相配。",
"desc": "杭州美食餐厅——楼外楼，在景色清幽的孤山南麓，面对淡妆浓抹的佳山丽水，负山拥水，独擅湖山之胜的楼外楼品西湖醋鱼，“何必归寻张翰鲈，鱼美风味说西湖。亏君有此调和手，识得当年宋嫂无。”\n这里的砖木结构，端庄古朴，富有中国民族特色。这座已有150多年悠久历史的名菜馆素以\"佳肴与美景共餐\"而驰名海内外。虽然发展至今，每日接待游客众多，菜品的味道上并没有太多惊艳，但胜在环境。如果提前预定，还可订到二楼景观位，一面饱览着西湖的澄净一面品尝着最具杭州风味的美食，更值得品味的是对历史的传承与变迁。\n"
},
{
"id": "10247",
"lng": "120.169046",
"lat": "30.24099",
"phone": "0571-87822715",
"label": "",
"cover": "http://cdn.youyuwei.com/o_1a29o3v5bpn11r9rt0l1o291etq9.jpg?imageView2/1/w/640/h/290",
"name": "清河坊小吃",
"cost": "36",
"name_origin": "",
"address": "杭州市上城区清河坊（近高银街）",
"address_origin": "",
"open_time": "",
"type": "小吃街",
"summary": "百年古韵第一坊，古香古味实难忘",
"reason": "小街充满了古香古色的韵味，丰富诱人的甜点小吃，不断诱惑着你前来一试",
"desc": "杭州美食餐厅—清河坊，这里浓缩了百年古韵，站在街口远远望去，小街充满了古香古色的韵味，时光仿佛把人们带到古时浙江的清河坊，感觉就如同走进了画卷里。小吃还没开始吃，人便陶醉在这古色古香的街道中。漫步在小吃街上，人不由变得很贪心，眼前的美味真想尝个遍，舍下哪一种都会让人遗憾。“土烘荷叶羊腿”、“临安石鸡”、“章记火鸡腿”、“梅干菜烤鸡翅”……光是听菜名就让人馋了，再看那炉子上烤得香气四溢，焦黄松脆的鸡翅，自己能做的也只有忙不迭掏钱的份儿了。这里除了创新口味的小吃，更有从清代流传绵延下来的传统味道，它们共同繁荣着浙江的饮食文化，老街的魅力是多层次的，它既能满足异地游客的好奇，又能让爱吃小吃的你流连忘返。\n"
},
{
"id": "10248",
"lng": "120.159768",
"lat": "30.244647",
"phone": "0571-87070777",
"label": "",
"cover": "http://cdn.youyuwei.com/o_19igq6cuvig61g9k1dam36l8i5d.jpg?imageView2/1/w/640/h/290",
"name": "玉玲珑",
"cost": "192",
"name_origin": "",
"address": "杭州市上城区绿杨路1号(中国美院斜对面) ",
"address_origin": "",
"open_time": "",
"type": "创意菜",
"summary": "古韵典雅玲珑精致，最小资",
"reason": "低调安静的创意餐厅，装潢别具一格，创意菜品极富新意",
"desc": "你还记得电影《非诚勿扰》里那家精致的餐厅吗？路边稀疏的法国梧桐，三三两两的车流，有些陈旧与沧桑，就是这里，杭州美食餐厅——玉玲珑低调安静，门楣高耸，大红色调红得一塌糊涂，满眼红色却看得人心窝暖暖，这里的每一处装璜和布置都充满了心思，古今混搭，舒适的沙发配上半透明幕帐，古韵巧遇现代的典雅，别有一翻风味在其中。环境布局是名副其实的“玲珑”，家具、餐盘等摆设也都相当精致，中西结合的创意菜做得更是特别，造型就像是艺术品，淡雅精致给你独到享受。玉玲珑之美，美在精致，快乐缤纷；美在独特，雅致共品；美在用心，细致入微。放下脚步，品一杯清茶；停住时间，赏玉玲珑之美；放松心情，享一顿优雅美味。\n"
},
{
"id": "10249",
"lng": "120.177513",
"lat": "30.240311",
"phone": "0571-87802288",
"label": "",
"cover": "http://cdn.youyuwei.com/o_1a29q7v131onv1g30rh0138q8f69.jpeg?imageView2/1/w/640/h/290",
"name": "老头儿油爆虾(姚园寺店)",
"cost": "53",
"name_origin": "",
"address": "杭州市上城区江城路姚园寺巷43号(近建国南路) ",
"address_origin": "",
"open_time": "10:00-22:00",
"type": "家常菜",
"summary": "杭州城接地气之地，吃什么全听老头儿的",
"reason": "杭州最出名的油爆虾店，火爆香气无可抵挡！",
"desc": "杭州的美食餐厅，老杭州们都会经常提到的“老头儿”，名气颇大。点菜没菜单，由他说了算，想多点几个都不让，好味道，就是这么任性！\n杭州不是只有儒雅浪漫，也有火爆热闹，这里你可以体验到杭州最地道的市井气息，不大的门脸却有络绎不绝的食客，在轻松随意的环境当中，呼朋唤友，人与人之间的距离拉近了，也更有“吃”的感觉了。分量十足的油爆虾，干炸带鱼，绝对让你大概以往对杭州精致小巧之感，江南的大气来的也可以如此猛烈。\n"
},
{
"id": "12044",
"lng": "120.138429",
"lat": "30.315743",
"phone": "0571-88194788",
"label": "",
"cover": "http://cdn.youyuwei.com/o_1a29po2kh1l871o3i7g510f61f8l9.jpg?imageView2/1/w/640/h/290",
"name": "院子餐厅(总店)",
"cost": "70",
"name_origin": "",
"address": "拱墅区桥西直街64-73号",
"address_origin": "",
"open_time": "11:00—14：00 17：:0—21:00",
"type": "创意菜",
"summary": "如同自家院子的亲切餐厅",
"reason": "全国连锁的总店必有过人之处，环境亲切可爱，菜肴更是有“家”的味道。",
"desc": "杭州美食餐厅——院子餐厅是一家全国连锁餐厅，在北京、上海等全国多个城市设有分店，杭州拱墅区这家是总店。\n院子餐厅是一家创意餐厅，根据大众口味适时对菜品进行创新，因此受到全国各地食客的青睐。院子餐厅顾名思义，装修风格十分大气，有如花园庭院，让人有一种置身自家庭院的亲切感，除了古香古色的院子式装修风格，餐厅内部还吸收了西餐厅的精华进行装饰，又给餐厅增添了中西合璧的美感。"
},
{
"id": "12045",
"lng": "120.163063",
"lat": "30.263482",
"phone": "0571-87076789",
"label": "",
"cover": "http://cdn.youyuwei.com/o_19t4t9dkt9551rq6h4m1fi711ed9.jpg?imageView2/1/w/640/h/290",
"name": "天香楼大酒店",
"cost": "94",
"name_origin": "",
"address": "下城区延安路447号浙江饭店2-3楼",
"address_origin": "",
"open_time": "11:00-14:00 17:00-21:00",
"type": "杭帮菜",
"summary": "可以临窗而坐的优雅餐厅",
"reason": "天香楼是杭州规格比较高的餐厅，环境优雅大气，菜品味道更是一绝。",
"desc": "杭州美食餐厅——天香楼大酒店是杭州的老牌餐馆，因此受到各个年龄阶段的人的喜爱。并且天香楼大酒店也是杭州规格比较高的餐厅，内部装修奢华大气，又不失古香古色的江南古韵。因为楼上即为酒店，游客众多，因此天香楼大酒店也是众多游客光顾的圣地。"
},
{
"id": "12046",
"lng": "120.145749",
"lat": "30.29431",
"phone": "18858108819",
"label": "",
"cover": "http://cdn.youyuwei.com/o_19t4vcnr91prja7nouf121m1b8m9.jpg?imageView2/1/w/640/h/290",
"name": "马灯部落(信义坊店)",
"cost": "73",
"name_origin": "",
"address": "拱墅区信义坊5号(湖墅南路草营巷路口）",
"address_origin": "",
"open_time": "11:00-14:00   17:00-20:30",
"type": "创意菜",
"summary": "有如原始部落的神奇餐厅",
"reason": "处处流露出原始部落气息的美味餐厅，堪称肉食者的天堂！",
"desc": "杭州美食餐厅——马灯部落是一个连锁店，虽然并没有在全国推广，但是已经在衡阳市和石河子市设有分店，分店最多的当然还是杭州，共有四家。马灯部落虽然分店分布较少，但在很多旅游和吃货朋友心中的分量是足足的，尤其受食肉类朋友的青睐。之前马灯部落的一场大火更是让更多人认识了它，重整旗鼓后的马灯部落更是人气高涨。马灯部落内部如同原始部落与偏木质的装修风格更是让很多食客爱不释手。"
},
{
"id": "12049",
"lng": "120.135155",
"lat": "30.216958",
"phone": "0571-87153033",
"label": "",
"cover": "http://cdn.youyuwei.com/o_19t53prtq4r2psj1e3v78g3t29.jpg?imageView2/1/w/640/h/290",
"name": "新榆园(虎跑店)",
"cost": "100",
"name_origin": "",
"address": "西湖区满觉陇路四眼井1号",
"address_origin": "",
"open_time": "11:00-21:00",
"type": "创意菜",
"summary": "创意家常菜",
"reason": "景区中的创意餐厅，非常适合喜静的食客，小资情调凸显无疑。",
"desc": "杭州美食餐厅——新榆园是一个连锁店，杭州共有两家店，菜品主要为创意家常菜，装修为田园风格，既有中式风格的风韵，又有西式风格的典雅，中西合璧十分到位，环境十分优雅，落地玻璃，里面的装修精致且小清新，外面是研茶园的室外茶座，晚上还有人乐器伴唱，非常适合喜静的食客，小资情调凸显无疑。"
},
{
"id": "12774",
"lng": "120.134877",
"lat": "30.251507",
"phone": "0571-85381762",
"label": "",
"cover": "http://cdn.youyuwei.com/o_1a71qjo7d132i2ft17qg17cdr399.jpg?imageView2/1/w/640/h/290",
"name": "小杨生煎(岳王庙店)",
"cost": "22",
"name_origin": "",
"address": "杭州西湖区北山路湖口5号(岳王庙对面)",
"address_origin": "",
"open_time": "",
"type": "快餐",
"summary": "",
"reason": "最具地方特色的民俗小吃",
"desc": ""
},
{
"id": "12775",
"lng": "120.134846",
"lat": "30.251444",
"phone": "0571-87079839",
"label": "",
"cover": "http://cdn.youyuwei.com/o_1a71qndm11vrpn2dgudibqhs09.jpg?imageView2/1/w/640/h/290",
"name": "永和大王(北山路)",
"cost": "24",
"name_origin": "",
"address": "西湖区北山路84号(印象西湖对面)",
"address_origin": "",
"open_time": "",
"type": "中式快餐",
"summary": "",
"reason": "最富经典的中式快餐",
"desc": ""
},
{
"id": "12777",
"lng": "120.135767",
"lat": "30.251009",
"phone": "0571-87971215",
"label": "",
"cover": "http://cdn.youyuwei.com/o_1a71rjpnf1mq2136k1dr91si912i09.jpg?imageView2/1/w/640/h/290",
"name": "跨虹阁 ",
"cost": "73",
"name_origin": "",
"address": "西湖区杨公堤苏堤1号(近北山路)",
"address_origin": "",
"open_time": "",
"type": "杭帮菜",
"summary": "",
"reason": "最具盛名的特色餐厅",
"desc": ""
},
{
"id": "12778",
"lng": "120.134823",
"lat": "30.251352",
"phone": "0571-87970801",
"label": "",
"cover": "http://cdn.youyuwei.com/o_1a71rta341j961p0u1du2g0t1srh9.jpg?imageView2/1/w/640/h/290",
"name": "岳湖楼 ",
"cost": "88",
"name_origin": "",
"address": "西湖区北山岳坟湖口8号(岳庙对面)",
"address_origin": "",
"open_time": "",
"type": "江浙菜",
"summary": "",
"reason": "古色古香的美味餐馆",
"desc": ""
},
{
"id": "13254",
"lng": "120.059254",
"lat": "30.255768",
"phone": "",
"label": "",
"cover": "http://cdn.youyuwei.com/o_1a85t9i8t1fe415mr1q2e15bh18n49.jpg?imageView2/1/w/640/h/290",
"name": "农家老灶菜馆",
"cost": "46",
"name_origin": "",
"address": "西湖区西溪湿地公园内深潭口景点",
"address_origin": "",
"open_time": "",
"type": "杭帮农家菜",
"summary": "",
"reason": "地道怀旧的农家菜馆",
"desc": ""
},
{
"id": "13148",
"lng": "120.128089",
"lat": "30.253508",
"phone": "0571-87998667",
"label": "",
"cover": "http://cdn.youyuwei.com/o_1a7p5fjq45qluurpni1k3s1o079.jpg?imageView2/1/w/640/h/290",
"name": "山外山林语花园餐厅",
"cost": "138",
"name_origin": "",
"address": "西湖区灵隐路6号(玉泉路口)",
"address_origin": "",
"open_time": "",
"type": "杭帮菜",
"summary": "",
"reason": "风景独好的花园餐厅",
"desc": ""
},
{
"id": "13149",
"lng": "120.127741",
"lat": "30.251162",
"phone": "0571-88298888 0571-81135188",
"label": "",
"cover": "http://cdn.youyuwei.com/o_1a7p5kcl0obl8k71mmhutr124c9.jpg?imageView2/1/w/640/h/290",
"name": "西子湖四季酒店金沙厅",
"cost": "535",
"name_origin": "",
"address": "杭州西湖区灵隐路5号杭州西子湖四季酒店1楼(近曲院风荷)",
"address_origin": "",
"open_time": "",
"type": "江浙菜",
"summary": "位于西湖边岸的绝佳餐厅",
"reason": "低调奢华的高档餐厅",
"desc": ""
},
{
"id": "13150",
"lng": "120.136316",
"lat": "30.25253",
"phone": "0571-87977951",
"label": "",
"cover": "http://cdn.youyuwei.com/o_1a7p5on4212ut1tmi1pp4rave399.jpg?imageView2/1/w/640/h/290",
"name": "香宫",
"cost": "144",
"name_origin": "",
"address": "西湖区北山路78号香格里拉饭店西楼3层(近岳王庙)",
"address_origin": "",
"open_time": "",
"type": "江浙菜",
"summary": "",
"reason": "传统与现代相结合的餐厅",
"desc": ""
},
{
"id": "13151",
"lng": "120.112586",
"lat": "30.245089",
"phone": "0571-87987999",
"label": "",
"cover": "http://cdn.youyuwei.com/o_1a7p5v91t17re1q1vtqs1cbcatc9.jpg?imageView2/1/w/640/h/290",
"name": "九里云松天香餐厅",
"cost": "239",
"name_origin": "",
"address": "西湖区灵隐路18-8号(近梅岭路)",
"address_origin": "",
"open_time": "",
"type": "江浙菜",
"summary": "",
"reason": "风景秀美的典雅餐厅",
"desc": ""
},
{
"id": "13152",
"lng": "120.106128",
"lat": "30.238715",
"phone": "0571-81632032",
"label": "",
"cover": "http://cdn.youyuwei.com/o_1a7p64gv7hrc16n8me4l6l4569.jpg?imageView2/1/w/640/h/290",
"name": "素食主义",
"cost": "59",
"name_origin": "",
"address": "西湖区天竺路185号(灵隐寺)",
"address_origin": "",
"open_time": "",
"type": "素菜",
"summary": "",
"reason": "素食主义的天堂",
"desc": ""
},
{
"id": "13153",
"lng": "120.115221",
"lat": "30.240153",
"phone": "0571-87982885",
"label": "",
"cover": "http://cdn.youyuwei.com/o_1a7p69r3q58v1evtg7j13h2s3q9.jpg?imageView2/1/w/640/h/290",
"name": "旅马餐厅(茅家埠店)",
"cost": "68",
"name_origin": "",
"address": "西湖区上茅家埠231号",
"address_origin": "",
"open_time": "",
"type": "杭帮菜",
"summary": "",
"reason": "富有情调的小资餐厅",
"desc": ""
},
{
"id": "13154",
"lng": "120.108497",
"lat": "30.244221",
"phone": "0571-87970446",
"label": "",
"cover": "http://cdn.youyuwei.com/o_1a7p6eo5p8sig9hhcgq67r19.jpg?imageView2/1/w/640/h/290",
"name": "小丫头饭店 ",
"cost": "52",
"name_origin": "",
"address": "西湖区灵隐白乐桥143号(灵隐寺，北高峰)",
"address_origin": "",
"open_time": "",
"type": "江浙菜",
"summary": "",
"reason": "古典花园式小餐厅",
"desc": ""
},
{
"id": "13155",
"lng": "120.105981",
"lat": "30.244908",
"phone": "0571-86945699",
"label": "",
"cover": "http://cdn.youyuwei.com/o_1a7p6j31nlf61snv10d01v0717oo9.jpg?imageView2/1/w/640/h/290",
"name": "木木亭",
"cost": "289",
"name_origin": "",
"address": "西湖区白乐桥72号(近灵隐寺)",
"address_origin": "",
"open_time": "",
"type": "日本料理",
"summary": "",
"reason": "地道风味的日料餐厅",
"desc": ""
},
{
"id": "13156",
"lng": "120.108086",
"lat": "30.244095",
"phone": "0571-85836666",
"label": "",
"cover": "http://cdn.youyuwei.com/o_1a7p6nrasqprgqpott1ohb2va9.jpg?imageView2/1/w/640/h/290",
"name": "灵隐禅和源",
"cost": "434",
"name_origin": "",
"address": "西湖区白乐桥138号(近灵隐路)",
"address_origin": "",
"open_time": "",
"type": "江浙菜",
"summary": "",
"reason": "幽静清幽的美食餐厅",
"desc": ""
},
{
"id": "13157",
"lng": "120.123848",
"lat": "30.24484",
"phone": "0571-87973759",
"label": "",
"cover": "http://cdn.youyuwei.com/o_1a7p6vhj41t854m11us1jov17li9.jpg?imageView2/1/w/640/h/290",
"name": "花房主题餐厅",
"cost": "81",
"name_origin": "",
"address": "西湖区龙井路4号(昆龙度假村对面)",
"address_origin": "",
"open_time": "",
"type": "江浙菜",
"summary": "",
"reason": "优雅甜美的主题餐厅",
"desc": ""
},
{
"id": "13158",
"lng": "120.105699",
"lat": "30.235962",
"phone": "0571-88945899",
"label": "",
"cover": "http://cdn.youyuwei.com/o_1a7p75q3mn0g7a8ni48a612g39.jpg?imageView2/1/w/640/h/290",
"name": "樵食庭院餐厅",
"cost": "92",
"name_origin": "",
"address": "西湖区灵隐天竺路267号(梅灵北路三天竺公交站)",
"address_origin": "",
"open_time": "",
"type": "江浙菜",
"summary": "",
"reason": "丛林风格的创意餐厅",
"desc": ""
},
{
"id": "13159",
"lng": "120.10609",
"lat": "30.238209",
"phone": "0571-87889199",
"label": "",
"cover": "http://cdn.youyuwei.com/o_1a7p7a8kmt5rqit12412lh8ss9.jpg?imageView2/1/w/640/h/290",
"name": "柏树子餐厅",
"cost": "145",
"name_origin": "",
"address": "西湖区 天竺路40号(近灵竺路)",
"address_origin": "",
"open_time": "",
"type": "日料",
"summary": "",
"reason": "高贵典雅的异国风情餐厅",
"desc": ""
},
{
"id": "13224",
"lng": "120.170174",
"lat": "30.240588",
"phone": "0571-87800111",
"label": "",
"cover": "http://cdn.youyuwei.com/o_1a85mh0p98u5shb85vqrq1mer9.jpg?imageView2/1/w/640/h/290",
"name": "王润兴酒楼",
"cost": "79",
"name_origin": "",
"address": "上城区河坊街101-103号(中山中路口)",
"address_origin": "",
"open_time": "",
"type": "江浙菜",
"summary": "",
"reason": "古色飘香的经典酒楼",
"desc": ""
},
{
"id": "13225",
"lng": "120.169816",
"lat": "30.239237",
"phone": "0571-87896657",
"label": "",
"cover": "http://cdn.youyuwei.com/o_1a85n0h7p16j4a0u1oeb1m5h1g1b9.jpg?imageView2/1/w/640/h/290",
"name": "薄荷庭院",
"cost": "72",
"name_origin": "",
"address": "上城区河坊街大井巷50号",
"address_origin": "",
"open_time": "",
"type": "创意菜",
"summary": "",
"reason": "书香幽静的小资餐厅",
"desc": ""
},
{
"id": "13227",
"lng": "120.166564",
"lat": "30.246739",
"phone": "0571-87080055",
"label": "",
"cover": "http://cdn.youyuwei.com/o_1a85n62u7ron11391edd109h7139.jpg?imageView2/1/w/640/h/290",
"name": "灶丰年间",
"cost": "67",
"name_origin": "",
"address": "上城区定安路126号(近西湖大道 和定安路交叉口 汉庭酒店旁)",
"address_origin": "",
"open_time": "",
"type": "江浙农家菜",
"summary": "",
"reason": "地道的农家乐餐厅",
"desc": ""
},
{
"id": "13229",
"lng": "120.169303",
"lat": "30.24052",
"phone": "0571-87805163",
"label": "",
"cover": "http://cdn.youyuwei.com/o_1a85nlh091ql9ph512721vt31lgv9.jpg?imageView2/1/w/640/h/290",
"name": "东伊顺",
"cost": "61",
"name_origin": "",
"address": "上城区高银街99-101号(近河坊街)",
"address_origin": "",
"open_time": "",
"type": "新疆菜",
"summary": "",
"reason": "地道美味的新疆饭馆",
"desc": ""
},
{
"id": "13230",
"lng": "120.171846",
"lat": "30.239131",
"phone": "0571-87046999",
"label": "",
"cover": "http://cdn.youyuwei.com/o_1a85nq74t3qc1851lehcfvj9d9.jpg?imageView2/1/w/640/h/290",
"name": "食神锅奉行",
"cost": "286",
"name_origin": "",
"address": "上城区中河中路7-9号(鼓楼，河坊街)",
"address_origin": "",
"open_time": "",
"type": "火锅",
"summary": "",
"reason": "典雅高贵的美食餐厅",
"desc": ""
},
{
"id": "13231",
"lng": "120.171059",
"lat": "30.23978",
"phone": "0571-87020977 0571-87029077",
"label": "",
"cover": "http://cdn.youyuwei.com/o_1a85oh40e17ca1gub57v1tbf6v69.jpg?imageView2/1/w/640/h/290",
"name": "美露西餐厅",
"cost": "59",
"name_origin": "",
"address": "上城区中山中路60号",
"address_origin": "",
"open_time": "",
"type": "西餐",
"summary": "",
"reason": "创意十足的现代西餐厅",
"desc": ""
},
{
"id": "13233",
"lng": "120.170174",
"lat": "30.240588",
"phone": "0571-87807768 0571-87801068",
"label": "",
"cover": "http://cdn.youyuwei.com/o_1a85ongmf1050j4d15fp170d1h6n9.jpg?imageView2/1/w/640/h/290",
"name": "皇饭儿(高银街总店)",
"cost": "78",
"name_origin": "",
"address": "上城区高银街53-57号(近河坊街)",
"address_origin": "",
"open_time": "",
"type": "江浙菜",
"summary": "",
"reason": "高雅奢华的豪华餐厅",
"desc": ""
},
{
"id": "13235",
"lng": "120.142111",
"lat": "30.199136",
"phone": "0571-86586866 0571-86586877",
"label": "",
"cover": "http://cdn.youyuwei.com/o_1a85oro4l2stbi0oli89l1nfd9.jpg?imageView2/1/w/640/h/290",
"name": "火车头餐厅",
"cost": "82",
"name_origin": "",
"address": "上城区老复兴路白塔公园内(从老复兴路进入)",
"address_origin": "",
"open_time": "",
"type": "江浙菜",
"summary": "",
"reason": "古典与现代相结合的餐厅",
"desc": ""
},
{
"id": "13236",
"lng": "120.136287",
"lat": "30.213072",
"phone": "0571-87987333",
"label": "",
"cover": "http://cdn.youyuwei.com/o_1a85p6ubc1fbd1cen1bnda631fa9.jpg?imageView2/1/w/640/h/290",
"name": "絮语餐厅",
"cost": "65",
"name_origin": "",
"address": "西湖区虎跑路41-1号(动物园对面)",
"address_origin": "",
"open_time": "",
"type": "江浙菜",
"summary": "",
"reason": "远离喧嚣的园林餐厅",
"desc": ""
},
{
"id": "13237",
"lng": "120.134432",
"lat": "30.217262",
"phone": "0571-88959517",
"label": "",
"cover": "http://cdn.youyuwei.com/o_1a85peno11nin18ap1pr8kc112oo9.jpg?imageView2/1/w/640/h/290",
"name": "兰桂坊花园餐厅",
"cost": "74",
"name_origin": "",
"address": "西湖区满觉陇路四眼井27号(少儿公园旁)",
"address_origin": "",
"open_time": "",
"type": "江浙",
"summary": "",
"reason": "清新文艺的花园餐厅",
"desc": ""
},
{
"id": "13238",
"lng": "120.136145",
"lat": "30.216259",
"phone": "13777452365",
"label": "",
"cover": "http://cdn.youyuwei.com/o_1a85pke8egjp1bg21acjfo81ek49.jpg?imageView2/1/w/640/h/290",
"name": "西湖蜀九香",
"cost": "42",
"name_origin": "",
"address": "西湖区虎跑路四眼井154号(近动物园)",
"address_origin": "",
"open_time": "",
"type": "川菜",
"summary": "",
"reason": "酸爽香辣的地道川菜馆",
"desc": ""
},
{
"id": "13239",
"lng": "120.145374",
"lat": "30.207519",
"phone": " 0571-87921117",
"label": "",
"cover": "http://cdn.youyuwei.com/o_1a85pt5ba1v9jbkmjgt12q7lvv9.jpg?imageView2/1/w/640/h/290",
"name": "杭州味道",
"cost": "116",
"name_origin": "",
"address": "上城区凤凰山路9号中国杭帮菜博物馆内(近南山陶瓷品市场)",
"address_origin": "",
"open_time": "",
"type": "江浙菜",
"summary": "",
"reason": "亲近自然的秀丽餐厅",
"desc": ""
},
{
"id": "13240",
"lng": "120.150527",
"lat": "30.204762",
"phone": "0571-28291177 0571-28876699",
"label": "",
"cover": "http://cdn.youyuwei.com/o_1a85q2ji91c1reuv1p2dvfri8m9.jpg?imageView2/1/w/640/h/290",
"name": "和瑶乡厨",
"cost": "52",
"name_origin": "",
"address": "上城区复兴路与水澄路交又口兰巷28号〈白塔人家小区路口〉",
"address_origin": "",
"open_time": "",
"type": "江浙菜",
"summary": "",
"reason": "地道正宗的乡土餐厅",
"desc": ""
},
{
"id": "13243",
"lng": "120.137555",
"lat": "30.214419",
"phone": " 0571-87979158",
"label": "",
"cover": "http://cdn.youyuwei.com/o_1a85qmq8l12s01vea1dcqqftc8q9.jpg?imageView2/1/w/640/h/290",
"name": "漫居主题度假酒店漫居原味餐厅",
"cost": "71",
"name_origin": "",
"address": "西湖区西湖区虎跑路四眼井58号(新开元酒店背后100米)",
"address_origin": "",
"open_time": "",
"type": "创意菜",
"summary": "",
"reason": "浪漫幽静的主题餐厅",
"desc": ""
},
{
"id": "13244",
"lng": "120.150341",
"lat": "30.206986",
"phone": "0571-86080573",
"label": "",
"cover": "http://cdn.youyuwei.com/o_1a85qv8meh7213l1oh1lrb1r7p9.jpg?imageView2/1/w/640/h/290",
"name": "德明饭店(八卦新村店)",
"cost": "92",
"name_origin": "",
"address": "上城区凤凰山路八卦新村3幢西侧(白云路南小弄堂)",
"address_origin": "",
"open_time": "",
"type": "江浙菜",
"summary": "",
"reason": "底蕴深厚的文化菜馆",
"desc": ""
},
{
"id": "13253",
"lng": "120.070157",
"lat": "30.275085",
"phone": "0571-87823222",
"label": "",
"cover": "http://cdn.youyuwei.com/o_1a85t5e531vic13juek8vd41p4h9.jpg?imageView2/1/w/640/h/290",
"name": "春暖花开餐厅(西溪店)",
"cost": "89",
"name_origin": "",
"address": "西湖区文二西路西溪国家湿地公园慢生活街区C2-16号",
"address_origin": "",
"open_time": "",
"type": "杭帮菜",
"summary": "",
"reason": "小清新花园式餐厅",
"desc": ""
},
{
"id": "13256",
"lng": "120.071259",
"lat": "30.272833",
"phone": "0571-88965703",
"label": "",
"cover": "http://cdn.youyuwei.com/o_1a85u61po2ra6dqcru16pn41q9.jpg?imageView2/1/w/640/h/290",
"name": "蒋村酒楼",
"cost": "72",
"name_origin": "",
"address": "西湖区文二西路西溪湿地国家公园河渚街蒋村酒楼",
"address_origin": "",
"open_time": "",
"type": "杭帮菜",
"summary": "",
"reason": "远离餐厅的园林餐厅",
"desc": ""
},
{
"id": "13257",
"lng": "120.267895",
"lat": "30.170618",
"phone": "0571-89987293",
"label": "",
"cover": "http://cdn.youyuwei.com/o_1a85v5ac78a5icskhffji5so9.jpg?imageView2/1/w/640/h/290",
"name": "汝拉小镇",
"cost": "65",
"name_origin": "",
"address": "西湖区文二西路西溪湿地蒋村集市慢生活街区(近西溪湿地北门)",
"address_origin": "",
"open_time": "",
"type": "创意菜",
"summary": "",
"reason": "富有创意的个性饭庄",
"desc": ""
},
{
"id": "13258",
"lng": "120.070325",
"lat": "30.274937",
"phone": "0571-89710896",
"label": "",
"cover": "http://cdn.youyuwei.com/o_1a85vifmlq9648c1e0m8h41dgs9.jpg?imageView2/1/w/640/h/290",
"name": "神马公社",
"cost": "86",
"name_origin": "",
"address": "西湖区文二西路西溪国家湿地公园慢生活街区C2-19号",
"address_origin": "",
"open_time": "",
"type": "创意菜",
"summary": "",
"reason": "环境优美的小资餐厅",
"desc": ""
},
{
"id": "13261",
"lng": "120.070914",
"lat": "30.275182",
"phone": "0571-81020176",
"label": "",
"cover": "http://cdn.youyuwei.com/o_1a860putm13h0mu31pn319pl1n5o9.jpg?imageView2/1/w/640/h/290",
"name": "神马江湖",
"cost": "64",
"name_origin": "",
"address": "西湖区文二西路西溪国家湿地公园北门慢生活街区C2-23",
"address_origin": "",
"open_time": "",
"type": "创意菜",
"summary": "",
"reason": "极具个性的主题餐厅",
"desc": ""
},
{
"id": "13262",
"lng": "120.063885",
"lat": "30.280839",
"phone": "0571-81020777",
"label": "",
"cover": "http://cdn.youyuwei.com/o_1a8619e79mkd1aue11er15au1pn9.jpg?imageView2/1/w/640/h/290",
"name": "铭庭食府",
"cost": "54",
"name_origin": "",
"address": "西湖区文二西路820号（原圣栖铭庭大酒店）",
"address_origin": "",
"open_time": "",
"type": "杭帮菜",
"summary": "",
"reason": "高贵奢华的高档餐厅",
"desc": ""
},
{
"id": "13263",
"lng": "120.07112",
"lat": "30.274794",
"phone": "0571-88830555",
"label": "",
"cover": "http://cdn.youyuwei.com/o_1a861krid1jv41mpk1pvmsjf2vh9.jpg?imageView2/1/w/640/h/290",
"name": "越华港式茶餐厅",
"cost": "48",
"name_origin": "",
"address": "文二西路西溪湿地北门蒋村集市慢生活街区c2-25（近汝拉小镇）",
"address_origin": "",
"open_time": "",
"type": "茶餐厅",
"summary": "",
"reason": "地道的港式餐厅",
"desc": ""
},
{
"id": "13264",
"lng": "120.04795",
"lat": "30.37898",
"phone": "0571-86650677",
"label": "",
"cover": "http://cdn.youyuwei.com/o_1a861pn9l1f47kl91rjru04ce29.jpg?imageView2/1/w/640/h/290",
"name": "钱江渔味馆",
"cost": "81",
"name_origin": "",
"address": "西湖区之浦路359号(近转塘交警中队)",
"address_origin": "",
"open_time": "",
"type": "江浙农家菜",
"summary": "",
"reason": "古典奢华的美食餐厅",
"desc": ""
},
{
"id": "13270",
"lng": "120.08889",
"lat": "30.18569",
"phone": "",
"label": "",
"cover": "http://cdn.youyuwei.com/o_1a862verj8dd1oqc1gio5m68kb9.jpg?imageView2/1/w/640/h/290",
"name": "印记餐厅",
"cost": "65",
"name_origin": "",
"address": "西湖区梅灵南路外大桥66号",
"address_origin": "",
"open_time": "",
"type": "杭帮菜",
"summary": "",
"reason": "远离喧嚣的幽静餐厅",
"desc": ""
},
{
"id": "13265",
"lng": "120.090786",
"lat": "30.182579",
"phone": "15088719690 13429681197",
"label": "",
"cover": "http://cdn.youyuwei.com/o_1a862cj8f12hai7vfcli0rrkb9.jpg?imageView2/1/w/640/h/290",
"name": "绿茶农庄",
"cost": "56",
"name_origin": "",
"address": "西湖区梅灵南路外大桥11号(近景云栖竹径)",
"address_origin": "",
"open_time": "",
"type": "江浙农家菜",
"summary": "",
"reason": "环境清幽的美食餐厅",
"desc": ""
},
{
"id": "13266",
"lng": "120.092631",
"lat": "30.182026",
"phone": "0571-86650431 0571-86650433",
"label": "",
"cover": "http://cdn.youyuwei.com/o_1a862h2khn6991c1b3eut4rim9.jpg?imageView2/1/w/640/h/290",
"name": "梅家坞6号花园餐厅",
"cost": "70",
"name_origin": "",
"address": "西湖区梅灵南路梅家坞6号(茶叶研究所对面)",
"address_origin": "",
"open_time": "",
"type": "杭帮菜",
"summary": "",
"reason": "风景独秀的花园餐厅",
"desc": ""
},
{
"id": "13267",
"lng": "120.105034",
"lat": "30.176688",
"phone": "0571-87667198 0571-87667188",
"label": "",
"cover": "http://cdn.youyuwei.com/o_1a862mdn1t6j1up4a091rnl1v5m9.jpg?imageView2/1/w/640/h/290",
"name": "绿城·杭州玫瑰园度假酒店英式酒吧",
"cost": "152",
"name_origin": "",
"address": "西湖区之江路128号(九溪玫瑰园别墅西区路口",
"address_origin": "",
"open_time": "",
"type": "西餐",
"summary": "",
"reason": "高贵奢华的西式餐厅",
"desc": ""
},
{
"id": "13269",
"lng": "120.088366",
"lat": "30.186062",
"phone": "0571-87320600 0571-87095980",
"label": "",
"cover": "http://cdn.youyuwei.com/o_1a862qaai12bc16pt12031d3dui09.jpg?imageView2/1/w/640/h/290",
"name": "彩茶餐厅",
"cost": "72",
"name_origin": "",
"address": "西湖区梅家坞云栖竹径风景区梅灵南路外大桥71号",
"address_origin": "",
"open_time": "",
"type": "杭帮菜",
"summary": "",
"reason": "清幽文艺的小资餐厅",
"desc": ""
},
{
"id": "13271",
"lng": "120.095281",
"lat": "30.178851",
"phone": "0571-88888579",
"label": "",
"cover": "http://cdn.youyuwei.com/o_1a863c49c1o8p1s4t1leghvvamj9.jpg?imageView2/1/w/640/h/290",
"name": "梵村茶庄",
"cost": "131",
"name_origin": "",
"address": "西湖区梅灵南路梵村苑9号",
"address_origin": "",
"open_time": "",
"type": "杭帮菜",
"summary": "",
"reason": "静谧安逸的风景餐厅",
"desc": ""
},
{
"id": "13434",
"lng": "120.112544",
"lat": "30.202962",
"phone": " 0571-85860186",
"label": "",
"cover": "http://cdn.youyuwei.com/o_1a8dhcq9qs8rskeskg1eb383s9.jpg?imageView2/1/w/640/h/290",
"name": "溪中溪酒家",
"cost": "60",
"name_origin": "",
"address": "西湖区 九溪路中段九溪烟树景区",
"address_origin": "",
"open_time": "",
"type": "杭帮菜",
"summary": "",
"reason": "野趣十足的山中小馆",
"desc": ""
},
{
"id": "15132",
"lng": "120.133953",
"lat": "30.229459",
"phone": " 0571-88867888",
"label": "杭帮菜/淮扬菜",
"cover": "http://cdn.youyuwei.com/o_1ajo3j169gnq5e13qmvhd1spi9.jpg?imageView2/1/w/640/h/290",
"name": "解香楼",
"cost": "200",
"name_origin": "",
"address": "西湖区八盘岭路1号紫萱村",
"address_origin": "",
"open_time": "",
"type": "江浙菜",
"summary": "功力深厚的西湖代表餐厅",
"reason": "西湖岸边难以割舍的美味",
"desc": "解香楼藏得比较深，溜达完葱郁曲折一步一景的杨公堤，拐进小道八盘岭，只看得见七八栋民居散落在树林间，雅致玲珑的木屋草顶，墙壁被爬山虎满满裹住，满满藏不住的春意。 \n招牌菜单不必多说，以浙菜为主； 和一般酒店薄薄一张当季菜单不一样，解香楼的时令菜单也是厚厚一本，还分了固定的季节菜和每月更换的时令菜。"
},
{
"id": "15133",
"lng": "129.374692",
"lat": "42.88306",
"phone": "0571-87888777",
"label": "杭帮菜",
"cover": "http://cdn.youyuwei.com/o_1ajo47c45ka1mrkinngngttv9.jpg?imageView2/1/w/640/h/290",
"name": "龙井草堂",
"cost": "400",
"name_origin": "",
"address": "西湖区龙井路外鸡笼山10号",
"address_origin": "",
"open_time": "",
"type": "杭帮菜",
"summary": "西湖边的世外桃源",
"reason": "一定要提前预定，价格带来的是超值的享受",
"desc": "隐藏在上龙井村的一条小路里，外面车水马龙尘土飞扬，拐弯进去似乎来到了另一番天地，一下子安静下来。左边流水潺潺，隔着溪水是一片坡地茶园，带着尖尖斗笠的茶农穿梭期间，隐约看到茶叶掩映中翻飞的手。\n价格尽管棘手，不过，就八个包厢一天接客两次不翻台，前后台八十来位人伺候着，又占着近三十亩田地，不觉得他们冲着挣钱去。换句话说，还是很值的。推荐中午来，昼日景色更美，屋内窗明几净，抬头就见清风抚叶，鸟语动人。"
}
],
"has_more": 1,
"offset": false
},
"count": 9999
},
{
"labelid": "10051",
"labelname": "杭帮菜",
"class": "1",
"restlist": {
"list": [
{
"id": "15132",
"lng": "120.133953",
"lat": "30.229459",
"phone": " 0571-88867888",
"label": "杭帮菜/淮扬菜",
"cover": "http://cdn.youyuwei.com/o_1ajo3j169gnq5e13qmvhd1spi9.jpg?imageView2/1/w/640/h/290",
"name": "解香楼",
"cost": "200",
"name_origin": "",
"address": "西湖区八盘岭路1号紫萱村",
"address_origin": "",
"open_time": "",
"type": "江浙菜",
"summary": "功力深厚的西湖代表餐厅",
"reason": "西湖岸边难以割舍的美味",
"desc": "解香楼藏得比较深，溜达完葱郁曲折一步一景的杨公堤，拐进小道八盘岭，只看得见七八栋民居散落在树林间，雅致玲珑的木屋草顶，墙壁被爬山虎满满裹住，满满藏不住的春意。 \n招牌菜单不必多说，以浙菜为主； 和一般酒店薄薄一张当季菜单不一样，解香楼的时令菜单也是厚厚一本，还分了固定的季节菜和每月更换的时令菜。"
},
{
"id": "15133",
"lng": "129.374692",
"lat": "42.88306",
"phone": "0571-87888777",
"label": "杭帮菜",
"cover": "http://cdn.youyuwei.com/o_1ajo47c45ka1mrkinngngttv9.jpg?imageView2/1/w/640/h/290",
"name": "龙井草堂",
"cost": "400",
"name_origin": "",
"address": "西湖区龙井路外鸡笼山10号",
"address_origin": "",
"open_time": "",
"type": "杭帮菜",
"summary": "西湖边的世外桃源",
"reason": "一定要提前预定，价格带来的是超值的享受",
"desc": "隐藏在上龙井村的一条小路里，外面车水马龙尘土飞扬，拐弯进去似乎来到了另一番天地，一下子安静下来。左边流水潺潺，隔着溪水是一片坡地茶园，带着尖尖斗笠的茶农穿梭期间，隐约看到茶叶掩映中翻飞的手。\n价格尽管棘手，不过，就八个包厢一天接客两次不翻台，前后台八十来位人伺候着，又占着近三十亩田地，不觉得他们冲着挣钱去。换句话说，还是很值的。推荐中午来，昼日景色更美，屋内窗明几净，抬头就见清风抚叶，鸟语动人。"
}
],
"has_more": 0,
"offset": false
},
"count": 2
},
{
"labelid": "10049",
"labelname": "淮扬菜",
"class": "1",
"restlist": {
"list": [
{
"id": "15132",
"lng": "120.133953",
"lat": "30.229459",
"phone": " 0571-88867888",
"label": "杭帮菜/淮扬菜",
"cover": "http://cdn.youyuwei.com/o_1ajo3j169gnq5e13qmvhd1spi9.jpg?imageView2/1/w/640/h/290",
"name": "解香楼",
"cost": "200",
"name_origin": "",
"address": "西湖区八盘岭路1号紫萱村",
"address_origin": "",
"open_time": "",
"type": "江浙菜",
"summary": "功力深厚的西湖代表餐厅",
"reason": "西湖岸边难以割舍的美味",
"desc": "解香楼藏得比较深，溜达完葱郁曲折一步一景的杨公堤，拐进小道八盘岭，只看得见七八栋民居散落在树林间，雅致玲珑的木屋草顶，墙壁被爬山虎满满裹住，满满藏不住的春意。 \n招牌菜单不必多说，以浙菜为主； 和一般酒店薄薄一张当季菜单不一样，解香楼的时令菜单也是厚厚一本，还分了固定的季节菜和每月更换的时令菜。"
}
],
"has_more": 0,
"offset": false
},
"count": 1
}
],
"cityinfo": {
"id": "10036",
"name": "杭州",
"labelid": "",
"cover": "http://cdn.youyuwei.com/o_19vvaa1repcs1di614g88cll1j9.jpg?imageView2/1/w/640/h/290",
"in_china": 1
}
},
"is_array": 1
}